{
"type": "FeatureCollection",
"name": "regions_centroid",
"crs": { "type": "name", "properties": { "name": "urn:ogc:def:crs:OGC:1.3:CRS84" } },
"features": [
{ "type": "Feature", "properties": { "ID": "REG000000000000000000013", "INSEE_REG": "11", "CHF_REG": "75056", "NOM_REG_M": "ILE DE FRANCE", "NOM_REG": "Île-de-France" }, "geometry": { "type": "Point", "coordinates": [ 2.503401161309748, 48.709316950102419 ] } },
{ "type": "Feature", "properties": { "ID": "REG000000000000000000011", "INSEE_REG": "52", "CHF_REG": "44109", "NOM_REG_M": "PAYS DE LA LOIRE", "NOM_REG": "Pays de la Loire" }, "geometry": { "type": "Point", "coordinates": [ -0.816786349108886, 47.478104883592842 ] } },
{ "type": "Feature", "properties": { "ID": "REG000000000000000000006", "INSEE_REG": "44", "CHF_REG": "67482", "NOM_REG_M": "GRAND EST", "NOM_REG": "Grand Est" }, "geometry": { "type": "Point", "coordinates": [ 5.613114163999055, 48.688977123515549 ] } },
{ "type": "Feature", "properties": { "ID": "REG000000000000000000007", "INSEE_REG": "32", "CHF_REG": "59350", "NOM_REG_M": "HAUTS DE FRANCE", "NOM_REG": "Hauts-de-France" }, "geometry": { "type": "Point", "coordinates": [ 2.771376861183913, 49.969519978178447 ] } },
{ "type": "Feature", "properties": { "ID": "REG000000000000000000008", "INSEE_REG": "28", "CHF_REG": "76540", "NOM_REG_M": "NORMANDIE", "NOM_REG": "Normandie" }, "geometry": { "type": "Point", "coordinates": [ 0.110945073869933, 49.120063825304229 ] } },
{ "type": "Feature", "properties": { "ID": "REG000000000000000000002", "INSEE_REG": "27", "CHF_REG": "21231", "NOM_REG_M": "BOURGOGNE FRANCHE COMTE", "NOM_REG": "Bourgogne-Franche-Comté" }, "geometry": { "type": "Point", "coordinates": [ 4.806856999976075, 47.234282819521759 ] } },
{ "type": "Feature", "properties": { "ID": "REG000000000000000000003", "INSEE_REG": "53", "CHF_REG": "35238", "NOM_REG_M": "BRETAGNE", "NOM_REG": "Bretagne" }, "geometry": { "type": "Point", "coordinates": [ -2.841488304639213, 48.177551124917166 ] } },
{ "type": "Feature", "properties": { "ID": "REG000000000000000000004", "INSEE_REG": "24", "CHF_REG": "45234", "NOM_REG_M": "CENTRE VAL DE LOIRE", "NOM_REG": "Centre-Val de Loire" }, "geometry": { "type": "Point", "coordinates": [ 1.6843913883453, 47.484776119231526 ] } }
]
}
